,city,lat,lng,Max Temp,Humidity,Cloudiness,Wind Speed,Country,Date
0,cape town,-33.93,18.42,286.48,93,0,1.5,ZA,1595361700
1,chengde,40.97,117.94,291.23,71,0,0.56,CN,1595361700
2,rikitea,-23.12,-134.97,292.21,63,92,8.64,PF,1595360995
3,hithadhoo,-0.6,73.08,302.0,76,64,4.03,MV,1595361029
4,sitka,57.05,-135.33,287.15,87,90,2.6,US,1595361168
5,cortez,37.35,-108.59,307.15,16,1,5.1,US,1595361701
6,sioux lookout,50.1,-91.92,294.15,52,75,2.6,CA,1595361536
7,saldanha,-33.01,17.94,286.15,87,0,1.0,ZA,1595361169
8,cockburn town,21.46,-71.14,304.15,62,40,6.2,TC,1595361702
9,tasiilaq,65.61,-37.64,282.15,66,20,4.6,GL,1595361702
10,bredasdorp,-34.53,20.04,287.15,87,0,3.6,ZA,1595361702
11,husavik,66.04,-17.34,285.15,71,75,5.7,IS,1595361702
12,port alfred,-33.59,26.89,293.07,30,0,3.79,ZA,1595361703
13,nanortalik,60.14,-45.24,284.21,72,81,7.74,GL,1595361703
14,basoko,1.24,23.62,297.38,73,100,0.19,CD,1595361703
15,aykhal,66.0,111.5,280.15,93,90,4.0,RU,1595361703
16,castro,-24.79,-50.01,293.09,65,3,1.83,BR,1595361704
17,ushuaia,-54.8,-68.3,275.15,85,94,2.06,AR,1595361427
18,zhaodong,46.08,125.98,290.15,82,61,3.0,CN,1595361704
19,mar del plata,-38.0,-57.56,284.26,93,90,7.2,AR,1595361550
20,ilulissat,69.22,-51.1,285.15,50,75,2.6,GL,1595361705
21,meulaboh,4.14,96.13,297.65,89,100,2.42,ID,1595361705
22,longyearbyen,78.22,15.64,283.15,76,75,1.5,SJ,1595361662
23,nogent-le-rotrou,48.33,1.0,295.15,30,0,2.1,FR,1595361705
24,codrington,-38.27,141.97,282.58,80,100,3.01,AU,1595361706
25,karatau,43.17,70.47,297.64,20,22,2.06,KZ,1595361706
26,dikson,73.51,80.55,277.19,94,100,5.92,RU,1595361706
27,williams lake,52.14,-122.14,293.15,64,75,0.36,CA,1595361628
28,hobart,-42.88,147.33,281.15,65,100,5.7,AU,1595361561
29,san patricio,19.22,-104.7,306.15,70,20,5.1,MX,1595361707
30,busselton,-33.65,115.33,287.04,75,5,5.02,AU,1595361707
31,salalah,17.02,54.09,300.15,94,75,2.6,OM,1595361707
32,yellowknife,62.46,-114.35,296.48,73,75,3.1,CA,1595361484
33,nome,64.5,-165.41,285.37,81,90,5.1,US,1595361708
34,hrodna,53.69,23.83,285.45,83,2,3.29,BY,1595361708
35,guerrero negro,27.98,-114.06,298.57,53,6,6.75,MX,1595361708
36,jamestown,42.1,-79.24,299.26,73,40,2.6,US,1595361708
37,grand gaube,-20.01,57.66,293.15,64,82,1.34,MU,1595361708
38,kodiak,57.79,-152.41,294.15,46,1,6.2,US,1595361709
39,bluff,-46.6,168.33,277.04,83,98,1.34,NZ,1595361709
40,bengkulu,-3.8,102.27,298.61,82,99,2.53,ID,1595361709
41,mataura,-46.19,168.86,277.04,83,93,1.34,NZ,1595361709
42,arraial do cabo,-22.97,-42.03,300.15,73,0,4.6,BR,1595361599
43,hilo,19.73,-155.09,300.15,65,1,3.1,US,1595361592
44,bulgan,48.81,103.53,289.32,64,100,0.55,MN,1595361710
45,upernavik,72.79,-56.15,282.72,62,99,0.63,GL,1595361710
46,east london,-33.02,27.91,291.0,45,0,3.44,ZA,1595361426
47,thompson,55.74,-97.86,300.15,36,75,5.1,CA,1595361461
48,xicotencatl,23.02,-98.88,309.26,45,0,4.47,MX,1595361711
49,taoudenni,22.68,-3.98,315.12,9,0,6.05,ML,1595361711
50,saint-augustin,51.23,-58.65,298.57,42,16,6.55,CA,1595361711
51,butaritari,3.07,172.79,300.15,79,100,5.19,KI,1595361712
52,gat,31.61,34.76,299.82,44,0,3.13,IL,1595361605
53,altay,47.87,88.12,287.62,78,100,0.45,CN,1595361712
54,lebu,-37.62,-73.65,285.07,79,100,4.89,CL,1595361712
55,punta arenas,-53.15,-70.92,272.15,92,36,3.6,CL,1595361712
56,susanville,40.42,-120.65,306.15,15,1,2.1,US,1595361713
57,la ronge,55.1,-105.28,297.15,57,40,1.5,CA,1595361459
58,sanming,26.25,117.62,297.98,85,0,0.89,CN,1595361713
59,kavaratti,10.57,72.64,301.43,76,100,5.28,IN,1595361713
60,nassau,40.75,-73.58,306.48,43,1,6.2,US,1595361486
61,nantucket,41.28,-70.1,301.15,54,1,5.1,US,1595361714
62,tilichiki,60.47,166.1,284.87,71,0,0.93,RU,1595361714
63,papillion,41.15,-96.04,302.59,54,75,2.1,US,1595361640
64,raudeberg,61.99,5.14,285.15,71,40,4.6,NO,1595361715
65,matara,5.95,80.54,299.38,87,100,2.03,LK,1595361715
66,ahipara,-35.17,173.17,284.72,77,63,10.17,NZ,1595361715
67,avarua,-21.21,-159.78,297.15,88,38,9.3,CK,1595361636
68,vawkavysk,53.16,24.45,286.58,84,27,3.37,BY,1595361716
69,vila franca do campo,37.72,-25.43,294.15,73,40,3.1,PT,1595361467
70,saint george,37.1,-113.58,311.48,17,20,5.7,US,1595361636
71,goderich,43.75,-81.72,299.82,55,13,3.79,CA,1595361716
72,ancud,-41.87,-73.82,283.15,66,100,4.1,CL,1595361716
73,albany,42.6,-73.97,304.26,41,4,3.76,US,1595361454
74,leh,34.17,77.58,284.16,53,54,3.31,IN,1595361717
75,provideniya,64.38,-173.3,280.15,87,90,3.0,RU,1595361717
76,iqaluit,63.75,-68.51,282.15,87,90,5.1,CA,1595361717
77,huron,41.15,-82.55,302.04,65,0,0.89,US,1595361718
78,torbay,47.67,-52.73,298.71,73,20,9.3,CA,1595361718
79,kaitangata,-46.28,169.85,278.15,64,29,2.68,NZ,1595361718
80,quatre cocos,-20.21,57.76,294.15,60,75,4.6,MU,1595361718
81,consuegra,39.46,-3.61,304.82,27,47,4.1,ES,1595361719
82,new norfolk,-42.78,147.06,280.93,83,100,0.89,AU,1595361719
83,hermanus,-34.42,19.23,283.15,95,0,1.54,ZA,1595361719
84,deputatskiy,69.3,139.9,295.7,56,96,0.86,RU,1595361720
85,fort nelson,58.81,-122.7,296.15,53,75,2.6,CA,1595361615
86,aitape,-3.14,142.35,298.84,84,52,2.12,PG,1595361720
87,taihe,30.87,105.38,294.88,91,100,1.29,CN,1595361721
88,antalaha,-14.9,50.28,292.75,81,27,4.91,MG,1595361721
89,saskylakh,71.92,114.08,282.14,76,100,6.16,RU,1595361606
90,cedar city,37.68,-113.06,300.15,22,75,1.5,US,1595361479
91,winslow,35.02,-110.7,305.15,21,1,11.8,US,1595361721
92,usinsk,65.99,57.53,288.2,75,0,3.31,RU,1595361722
93,kloulklubed,7.04,134.26,299.15,88,75,1.57,PW,1595361722
94,ponta do sol,32.67,-17.1,296.15,64,20,4.6,PT,1595361722
95,san juan,-31.54,-68.54,286.59,45,20,4.37,AR,1595361723
96,sao raimundo nonato,-9.02,-42.7,302.71,38,25,4.65,BR,1595361723
97,yulara,-25.24,130.99,282.15,81,38,3.1,AU,1595361723
98,nakamura,32.98,132.93,297.26,88,90,1.53,JP,1595361723
99,villa carlos paz,-31.42,-64.5,286.15,76,75,4.6,AR,1595361724
100,mamallapuram,12.63,80.17,302.15,89,40,2.1,IN,1595361724
101,kedrovyy,56.17,91.82,289.15,87,75,4.0,RU,1595361724
102,bastia,42.67,9.33,297.15,78,0,1.0,FR,1595361724
103,ribeira grande,38.52,-28.7,295.15,73,75,3.6,PT,1595361724
104,bandar-e lengeh,26.56,54.88,308.5,36,0,3.33,IR,1595361725
105,saint-joseph,-21.37,55.62,291.15,82,75,2.1,RE,1595361725
106,qaanaaq,77.48,-69.36,282.9,53,16,2.25,GL,1595361566
107,opuwo,-18.06,13.84,289.01,33,0,4.02,NA,1595361725
108,avera,33.19,-82.53,307.15,49,40,4.1,US,1595361725
109,fengzhen,40.44,113.15,290.07,77,21,2.1,CN,1595361726
110,ust-ilimsk,58.0,102.66,283.3,68,86,1.33,RU,1595361726
111,port elizabeth,-33.92,25.57,286.15,82,0,2.1,ZA,1595361458
112,leningradskiy,69.38,178.42,282.24,64,100,4.51,RU,1595361595
113,stornoway,58.21,-6.39,287.15,76,65,1.5,GB,1595361431
114,kondinskoye,59.65,67.41,287.4,76,0,1.85,RU,1595361727
115,vredendal,-31.67,18.5,286.9,53,0,1.03,ZA,1595361727
116,upington,-28.45,21.26,287.15,19,0,2.6,ZA,1595361727
117,atuona,-9.8,-139.03,299.5,75,4,9.13,PF,1595361595
118,armidale,-30.52,151.65,274.43,95,87,1.57,AU,1595361728
119,vaini,-21.2,-175.2,287.15,93,20,1.46,TO,1595361459
120,bethel,41.37,-73.41,305.37,43,20,2.6,US,1595361501
121,grindavik,63.84,-22.43,284.15,62,75,2.1,IS,1595361467
122,shingu,33.73,135.98,296.68,89,1,1.64,JP,1595361729
123,comodoro rivadavia,-45.87,-67.5,278.15,75,75,6.7,AR,1595361546
124,chuy,-33.7,-53.46,293.27,87,100,2.09,UY,1595361595
125,kouroussa,10.65,-9.88,297.09,92,97,0.62,GN,1595361730
126,pisco,-13.7,-76.22,292.59,77,20,5.1,PE,1595361502
127,shubarkuduk,49.14,56.49,299.7,36,87,6.97,KZ,1595361460
128,barrow,71.29,-156.79,274.15,80,90,3.1,US,1595361730
129,wajima,37.4,136.9,295.36,87,9,3.94,JP,1595361731
130,mbeya,-8.9,33.45,284.74,79,18,3.09,TZ,1595361731
131,petropavlovsk-kamchatskiy,53.05,158.65,283.15,100,17,2.0,RU,1595361732
132,luderitz,-26.65,15.16,295.15,33,0,3.6,NA,1595361732
133,freeport,40.66,-73.58,306.48,43,1,6.2,US,1595361476
134,riyadh,24.69,46.72,313.15,11,21,3.6,SA,1595361733
135,pran buri,12.38,99.91,299.3,84,100,1.42,TH,1595361733
136,wangou,42.06,126.91,288.75,71,81,1.07,CN,1595361733
137,sur,22.57,59.53,302.21,73,100,8.84,OM,1595361734
138,krasnoselkup,65.7,82.47,280.1,82,79,5.55,RU,1595361734
139,seredka,58.16,28.19,291.15,82,75,1.0,RU,1595361734
140,djambala,-2.54,14.75,297.14,46,0,1.49,CG,1595361734
141,manokwari,-0.87,134.08,299.81,68,87,2.04,ID,1595361735
142,cabo san lucas,22.89,-109.91,306.15,54,20,7.7,MX,1595361602
143,ponta delgada,37.73,-25.67,294.15,73,40,3.1,PT,1595361439
144,mount gambier,-37.83,140.77,281.15,100,90,2.1,AU,1595361736
145,souillac,-20.52,57.52,294.15,60,75,4.6,MU,1595361736
146,katsuura,35.13,140.3,298.15,91,99,3.94,JP,1595361736
147,toba tek singh,30.97,72.48,301.28,62,76,1.94,PK,1595361736
148,avanigadda,16.02,80.92,301.46,84,100,2.57,IN,1595361736
149,juan lacaze,-34.43,-57.44,290.93,93,100,3.6,UY,1595361737
150,hami,42.8,93.45,296.43,48,10,3.7,CN,1595361737
151,fukue,32.69,128.84,298.92,92,100,3.35,JP,1595361737
152,antofagasta,-23.65,-70.4,288.15,77,75,6.2,CL,1595361737
153,menongue,-14.66,17.69,285.87,43,0,1.88,AO,1595361738
154,bozoum,6.32,16.38,293.35,94,11,1.16,CF,1595361738
155,hovd,48.01,91.64,293.03,56,100,0.87,MN,1595361738
156,carnarvon,-24.87,113.63,288.15,100,0,4.1,AU,1595361738
157,namibe,-15.2,12.15,292.71,70,35,1.95,AO,1595361739
158,berdigestyakh,62.1,126.7,285.78,86,36,4.46,RU,1595361739
159,tuatapere,-46.13,167.68,277.04,83,54,1.34,NZ,1595361739
160,lompoc,34.64,-120.46,292.15,77,44,5.1,US,1595361739
161,san juan bautista,-14.01,-75.74,292.04,77,20,5.1,PE,1595361740
162,vardo,70.37,31.11,286.15,87,40,2.6,NO,1595361740
163,puerto ayora,-0.74,-90.35,299.15,61,75,7.2,EC,1595361740
164,sivas,39.79,37.0,286.15,71,0,4.6,TR,1595361520
165,geraldton,-28.77,114.6,282.15,93,0,3.6,AU,1595361740
166,port hedland,-20.32,118.57,288.15,62,0,4.1,AU,1595361597
167,jumla,29.27,82.18,287.73,72,100,0.36,NP,1595361741
168,chilca,-12.52,-76.74,292.15,68,40,3.1,PE,1595361741
169,los llanos de aridane,28.66,-17.92,296.15,69,20,7.2,ES,1595361741
170,mount isa,-20.73,139.5,288.15,33,0,3.6,AU,1595361742
171,poso,-1.4,120.75,298.44,76,35,3.18,ID,1595361742
172,morococha,-11.6,-76.14,283.18,38,0,3.73,PE,1595361742
173,bom jesus,-9.07,-44.36,304.9,31,0,3.56,BR,1595361659
174,murmashi,68.82,32.81,291.15,72,100,2.0,RU,1595361743
175,mahebourg,-20.41,57.7,294.15,60,75,4.6,MU,1595361457
176,port lincoln,-34.73,135.87,282.96,71,1,2.78,AU,1595361743
177,thunder bay,48.4,-89.32,292.15,59,90,2.1,CA,1595361743
178,praia,14.92,-23.51,302.15,62,57,4.6,CV,1595361744
179,draguignan,43.53,6.47,299.15,65,0,1.5,FR,1595361744
180,lisakovsk,52.54,62.49,291.31,72,100,5.37,KZ,1595361744
181,newport,51.59,-3.0,292.59,59,49,1.68,GB,1595361744
182,hasaki,35.73,140.83,296.15,100,75,2.6,JP,1595361461
183,socorro,31.65,-106.3,307.59,27,20,2.1,US,1595361745
184,pevek,69.7,170.31,282.61,60,100,2.11,RU,1595361745
185,lanzhou,36.06,103.79,294.26,67,0,1.49,CN,1595361745
186,maputo,-25.97,32.59,292.59,72,0,3.6,MZ,1595361746
187,north bend,43.41,-124.22,297.59,77,20,7.7,US,1595361746
188,slave lake,55.28,-114.77,292.15,72,90,1.0,CA,1595361746
189,buloh kasap,2.55,102.76,298.15,94,20,1.0,MY,1595361747
190,susaki,33.37,133.28,298.1,77,87,2.03,JP,1595361747
191,suntar,62.14,117.63,287.21,96,91,3.52,RU,1595361747
192,buraydah,26.33,43.98,311.15,17,0,3.6,SA,1595361747
193,launceston,-41.45,147.17,274.26,100,2,1.5,AU,1595361747
194,bambous virieux,-20.34,57.76,294.15,60,75,4.6,MU,1595361748
195,biak,-0.91,122.88,297.63,83,30,3.07,ID,1595361748
196,chokurdakh,70.63,147.92,295.31,46,100,5.27,RU,1595361460
197,brae,60.4,-1.35,284.15,87,7,1.5,GB,1595361748
198,kavieng,-2.57,150.8,300.96,74,3,2.65,PG,1595361749
199,mehamn,71.04,27.85,284.15,93,90,2.25,NO,1595361749
200,taitung,22.76,121.14,300.39,73,18,2.32,TW,1595361749
201,bridgetown,13.1,-59.62,305.15,55,40,8.2,BB,1595361517
202,pacific grove,36.62,-121.92,295.37,82,87,2.68,US,1595361750
203,sobolevo,54.43,31.9,288.27,94,11,4.49,RU,1595361750
204,khatanga,71.97,102.5,285.16,67,30,4.02,RU,1595361750
205,kapaa,22.08,-159.32,302.59,74,75,6.7,US,1595361750
206,buala,-8.14,159.59,299.05,82,89,4.35,SB,1595361751
207,boca do acre,-8.75,-67.4,307.61,34,44,0.51,BR,1595361751
208,labuhan,-6.88,112.21,298.58,86,82,3.59,ID,1595361751
209,ampanihy,-24.7,44.75,289.09,74,0,4.94,MG,1595361751
210,marawi,8.0,124.29,296.48,94,100,3.13,PH,1595361751
211,anadyr,64.75,177.48,285.15,71,0,2.0,RU,1595361484
212,washim,20.1,77.15,298.52,86,100,1.97,IN,1595361752
213,norman wells,65.28,-126.83,284.15,93,90,5.7,CA,1595361495
214,belle glade,26.68,-80.67,302.59,78,100,1.34,US,1595361467
215,gorele,41.03,39.0,297.15,69,75,3.54,TR,1595361752
216,talnakh,69.49,88.4,284.15,87,40,9.0,RU,1595361753
217,uni,57.75,51.49,288.99,95,77,4.1,RU,1595361753
218,krapkowice,50.48,17.97,292.59,71,0,0.89,PL,1595361754
219,srednekolymsk,67.45,153.68,296.05,34,25,7.89,RU,1595361754
220,novyy urengoy,66.08,76.63,281.28,71,0,5.1,RU,1595361754
221,inhambane,-23.86,35.38,293.15,68,75,2.1,MZ,1595361754
222,almaznyy,48.04,40.05,294.15,77,10,2.0,RU,1595361754
223,kattivakkam,13.22,80.32,302.15,89,40,2.1,IN,1595361755
224,pangai,-19.8,-174.35,293.15,94,40,2.0,TO,1595361755
225,cherskiy,68.75,161.3,294.12,40,29,3.74,RU,1595361755
226,juneau,58.3,-134.42,290.15,72,90,2.1,US,1595361750
227,lakes entrance,-37.88,147.98,278.15,93,58,4.13,AU,1595361756
228,qaqortoq,60.72,-46.03,292.15,39,40,4.1,GL,1595361756
229,orlovskiy,46.87,42.06,293.74,66,7,2.31,RU,1595361756
230,victor harbor,-35.57,138.62,280.93,91,87,1.25,AU,1595361756
231,freetown,8.48,-13.23,298.05,89,100,4.1,SL,1595361694
232,ternate,0.8,127.4,299.93,76,82,1.97,ID,1595361757
233,lagoa,39.05,-27.98,293.98,73,0,2.28,PT,1595361757
234,lucapa,-8.42,20.74,293.74,24,0,1.49,AO,1595361757
235,carbonia,39.17,8.52,299.26,78,0,3.1,IT,1595361591
236,asmar,35.03,71.36,295.36,62,0,0.54,AF,1595361757
237,cartagena,10.4,-75.51,302.15,83,75,4.1,CO,1595361758
238,kushiro,42.98,144.37,289.62,97,100,4.68,JP,1595361758
239,lasa,46.62,10.7,289.82,82,40,1.0,IT,1595361758
240,emerald,-23.53,148.17,286.48,62,75,3.6,AU,1595361758
241,sinnamary,5.38,-52.95,301.05,80,68,4.73,GF,1595361759
242,levokumskoye,44.82,44.66,294.02,74,91,5.91,RU,1595361759
243,kanniyakumari,8.08,77.57,299.9,86,100,5.08,IN,1595361610
244,palmer,42.16,-72.33,304.82,40,40,3.6,US,1595361630
245,oriximina,-1.77,-55.87,305.0,45,56,3.26,BR,1595361759
246,santo anastacio,-21.84,-51.61,302.15,26,0,2.1,BR,1595361760
247,bilma,18.69,12.92,307.79,23,2,4.54,NE,1595361760
248,broome,42.25,-75.83,302.04,57,75,3.1,US,1595361760
249,caravelas,-17.71,-39.25,295.82,70,0,2.32,BR,1595361760
250,rognan,67.1,15.39,283.71,96,100,1.55,NO,1595361761
251,morant bay,17.88,-76.41,305.15,59,20,11.8,JM,1595361761
252,chicama,-7.84,-79.15,294.81,59,39,4.7,PE,1595361761
253,itambacuri,-18.03,-41.69,296.1,62,33,1.22,BR,1595361761
254,khandbari,27.37,87.2,295.83,77,98,0.21,NP,1595361761
255,vila velha,-20.33,-40.29,298.71,73,40,7.7,BR,1595361762
256,bowen,-20.02,148.23,293.15,88,75,4.1,AU,1595361762
257,sao filipe,14.9,-24.5,298.5,77,100,2.89,CV,1595361762
258,kenitra,34.26,-6.58,296.15,73,20,3.6,MA,1595361762
259,natal,-5.79,-35.21,299.15,74,75,4.6,BR,1595361560
260,quelimane,-17.88,36.89,293.15,82,1,2.1,MZ,1595361763
261,biltine,14.53,20.92,304.59,46,60,3.91,TD,1595361763
262,herborn,50.68,8.32,289.26,52,0,1.7,DE,1595361763
263,marsh harbour,26.54,-77.06,301.73,76,100,6.37,BS,1595361764
264,marienburg,54.04,19.03,288.15,67,0,4.1,PL,1595361764
265,celendin,-6.87,-78.15,295.15,30,40,2.6,PE,1595361764
266,jinchang,38.5,102.17,296.14,31,0,2.72,CN,1595361765
267,lavrentiya,65.58,-171.0,281.4,70,80,0.53,RU,1595361765
268,rypefjord,70.63,23.67,284.15,100,75,4.1,NO,1595361765
269,duvan,55.7,57.9,288.7,92,97,3.79,RU,1595361765
270,cidreira,-30.18,-50.21,294.31,69,100,2.13,BR,1595361765
271,manzhouli,49.6,117.43,287.91,64,13,2.36,CN,1595361766
272,erzin,36.96,36.2,300.93,83,4,0.09,TR,1595361766
273,kununurra,-15.77,128.73,286.15,32,12,5.06,AU,1595361767
274,severo-kurilsk,50.68,156.12,283.14,88,22,2.94,RU,1595361670
275,nizhniy kislyay,50.85,40.17,290.23,85,0,3.12,RU,1595361767
276,pochutla,15.74,-96.47,303.15,83,90,2.6,MX,1595361767
277,lorengau,-2.02,147.27,300.52,73,29,2.48,PG,1595361768
278,isangel,-19.55,169.27,293.5,66,19,4.91,VU,1595361758
279,narsaq,60.92,-46.05,292.15,39,40,4.1,GL,1595361768
280,monroe,43.15,-77.68,299.82,57,75,3.6,US,1595361492
281,college,64.86,-147.8,285.15,93,90,5.1,US,1595361622
282,mersing,2.43,103.84,297.15,100,84,2.6,MY,1595361769
283,russell,32.35,-85.2,308.15,44,1,1.5,US,1595361769
284,tuktoyaktuk,69.45,-133.04,279.15,75,75,3.1,CA,1595361770
285,dandong,40.13,124.39,291.97,79,82,1.45,CN,1595361770
286,alugan,12.22,125.48,300.05,80,100,2.28,PH,1595361770
287,nehe,48.48,124.83,289.54,73,27,2.62,CN,1595361771
288,ikalamavony,-21.15,46.58,285.4,81,10,3.32,MG,1595361771
289,cootamundra,-34.65,148.03,275.37,96,50,0.45,AU,1595361771
290,mackenzie,55.3,-123.17,290.15,93,75,2.1,CA,1595361628
291,winnemucca,40.97,-117.74,309.15,11,1,2.1,US,1595361771
292,mill valley,37.91,-122.55,292.59,75,40,4.8,US,1595361690
293,jasrana,27.25,78.68,301.88,67,100,1.49,IN,1595361772
294,baherden,38.44,57.43,307.5,14,0,3.94,TM,1595361772
295,kalmunai,7.42,81.82,300.49,80,100,4.88,LK,1595361772
296,kahului,20.89,-156.47,301.15,61,40,4.6,US,1595361773
297,sola,-13.88,167.55,297.98,71,14,7.96,VU,1595361773
298,hamilton,39.18,-84.53,307.59,55,75,5.1,US,1595361483
299,saint-philippe,-21.36,55.77,291.15,82,75,2.1,RE,1595361773
300,beringovskiy,63.05,179.32,282.17,74,0,1.67,RU,1595361774
301,tessalit,20.2,1.01,308.53,22,60,5.56,ML,1595361774
302,bull savanna,17.89,-77.59,302.2,70,25,7.25,JM,1595361775
303,nikolskoye,59.7,30.79,292.04,77,75,5.0,RU,1595361775
304,cururupu,-1.83,-44.87,298.77,93,85,1.68,BR,1595361775
305,jalu,29.03,21.55,300.28,41,0,8.01,LY,1595361775
306,port perry,44.11,-78.94,300.93,60,75,1.5,CA,1595361775
307,andenes,69.31,16.12,284.15,93,90,6.2,NO,1595361776
308,shimoda,34.67,138.95,295.37,94,71,3.0,JP,1595361776
309,fairbanks,64.84,-147.72,285.15,93,90,4.6,US,1595361643
310,coquimbo,-29.95,-71.34,288.15,72,40,5.7,CL,1595361777
311,dalnerechensk,45.93,133.72,290.01,93,0,1.31,RU,1595361777
312,ketchikan,55.34,-131.65,288.15,82,75,3.6,US,1595361777
313,alofi,-19.06,-169.92,296.15,100,91,2.1,NU,1595361666
314,capitan miranda,-27.2,-55.8,302.15,42,100,3.1,PY,1595361778
315,ballina,-28.87,153.57,285.15,81,40,4.1,AU,1595361584
316,udachnyy,66.42,112.4,280.15,93,90,4.0,RU,1595361778
317,zhigansk,66.77,123.37,286.94,94,100,8.88,RU,1595361778
318,rabo de peixe,37.8,-25.58,294.15,73,40,2.1,PT,1595361779
319,beni suef,29.07,31.1,300.82,45,0,6.75,EG,1595361779
320,port blair,11.67,92.75,300.63,78,95,1.56,IN,1595361779
321,alakurtti,66.97,30.35,290.37,80,100,0.45,RU,1595361779
322,anito,12.45,125.29,298.79,85,100,1.55,PH,1595361780
323,ferkessedougou,9.6,-5.2,296.67,92,32,1.63,CI,1595361780
324,ambilobe,-13.2,49.05,291.91,72,39,1.69,MG,1595361780
325,fort saint james,54.43,-124.25,292.9,70,0,3.0,CA,1595361780
326,bandarbeyla,9.49,50.81,298.37,76,1,14.84,SO,1595361781
327,san benito,16.91,-89.91,308.53,35,28,0.92,GT,1595361781
328,kui buri,12.08,99.85,298.63,85,100,1.46,TH,1595361781
329,havelock,34.88,-76.9,306.15,29,20,5.7,US,1595361782
330,tazovskiy,67.47,78.7,279.66,84,82,7.54,RU,1595361782
331,ayan,56.45,138.17,284.02,94,100,7.71,RU,1595361782
332,tiarei,-17.53,-149.33,300.15,69,20,3.1,PF,1595361782
333,batesville,35.77,-91.64,307.04,55,20,4.6,US,1595361772
334,oranjemund,-28.55,16.43,289.7,51,0,1.79,NA,1595361783
335,usevya,-7.1,31.23,292.45,53,0,0.89,TZ,1595361783
336,san quintin,30.48,-115.95,295.47,66,12,7.55,MX,1595361784
337,pokhara,28.23,83.98,294.88,76,100,1.67,NP,1595361784
338,alice springs,-23.7,133.88,276.15,100,0,3.02,AU,1595361583
339,mbini,1.57,9.61,300.15,83,40,3.1,GQ,1595361784
340,inverell,-29.78,151.12,280.93,81,99,0.45,AU,1595361611
341,victoria,22.29,114.16,300.93,83,0,2.68,HK,1595361750
342,ostrovnoy,68.05,39.51,289.26,71,0,5.15,RU,1595361785
343,leshukonskoye,64.9,45.76,288.95,73,0,2.49,RU,1595361786
344,marystown,47.17,-55.15,292.62,78,17,7.38,CA,1595361786
345,beyneu,45.32,55.2,307.89,17,98,4.91,KZ,1595361786
346,billings,45.78,-108.5,303.71,28,20,3.1,US,1595361786
347,plouzane,48.38,-4.62,291.15,59,34,4.6,FR,1595361733
348,saint-louis,16.33,-15.0,308.64,38,75,1.11,SN,1595361787
349,dunedin,-45.87,170.5,277.59,72,27,13.86,NZ,1595361653
350,san rafael,-34.62,-68.33,283.2,68,89,4.67,AR,1595361787
351,adrar,20.5,-10.07,309.06,22,98,4.05,MR,1595361787
352,ruston,32.52,-92.64,305.15,52,90,3.6,US,1595361787
353,kaeo,-35.1,173.78,280.93,3,2,2.24,NZ,1595361593
354,huai yot,7.79,99.63,297.0,90,100,0.28,TH,1595361788
355,chara,56.91,118.26,281.14,78,31,1.67,RU,1595361788
356,ocean city,39.28,-74.57,306.48,43,1,3.6,US,1595361788
357,joao pinheiro,-17.74,-46.17,298.47,39,0,1.93,BR,1595361789
358,ust-barguzin,53.45,108.98,284.5,63,1,2.28,RU,1595361789
359,port macquarie,-31.43,152.92,281.48,89,75,3.6,AU,1595361789
360,mayya,61.73,130.28,289.15,72,40,5.0,RU,1595361790
361,wete,-5.06,39.73,297.25,76,21,5.91,TZ,1595361790
362,linqiong,30.42,103.46,296.15,73,40,0.21,CN,1595361790
363,pedasi,7.53,-80.03,300.28,76,100,3.89,PA,1595361791
364,chuncheng,22.17,111.79,297.85,92,53,0.09,CN,1595361792
365,asfi,32.3,-9.24,294.65,85,0,4.98,MA,1595361792
366,flin flon,54.77,-101.86,297.15,50,40,3.6,CA,1595361655
367,hualmay,-11.1,-77.61,291.51,69,30,3.57,PE,1595361792
368,ranong,9.97,98.63,298.52,83,100,0.64,TH,1595361793
369,san cristobal,7.77,-72.22,304.15,58,40,3.1,VE,1595361718
370,kommunisticheskiy,61.68,64.48,287.42,68,0,1.14,RU,1595361793
371,dryden,49.78,-92.75,293.15,60,90,1.5,CA,1595361793
372,huarmey,-10.07,-78.15,291.87,70,68,4.59,PE,1595361793
373,constitucion,-35.33,-72.42,285.44,77,95,3.9,CL,1595361794
374,canon city,38.44,-105.24,303.15,33,1,6.7,US,1595361794
375,puerto leguizamo,-0.19,-74.78,300.26,86,93,0.5,CO,1595361794
376,yar-sale,66.83,70.83,280.61,71,0,1.01,RU,1595361795
377,george,-33.96,22.46,287.15,54,0,1.0,ZA,1595361795
378,claremont,34.1,-117.72,303.71,44,1,4.1,US,1595361795
379,sorland,67.67,12.69,285.15,81,40,3.6,NO,1595361795
380,roald,62.58,6.13,283.15,81,75,3.6,NO,1595361605
381,kushima,31.46,131.23,298.71,83,16,4.92,JP,1595361796
382,barabai,-2.58,115.38,296.39,91,49,0.41,ID,1595361796
383,nicosia,35.17,33.37,300.15,74,0,6.2,CY,1595361765
384,redcar,54.62,-1.06,289.26,66,89,1.34,GB,1595361797
385,faanui,-16.48,-151.75,298.37,82,20,10.85,PF,1595361797
386,maracaju,-21.61,-55.17,302.52,33,7,3.15,BR,1595361797
387,bauchi,10.5,10.0,297.7,78,4,2.95,NG,1595361797
388,coos bay,43.37,-124.22,297.59,77,20,7.7,US,1595361798
389,sao felix do xingu,-6.64,-51.99,306.73,30,33,1.7,BR,1595361798
390,bonnyville,54.27,-110.73,296.15,53,75,4.1,CA,1595361798
391,half moon bay,37.46,-122.43,294.82,87,75,3.44,US,1595361799
392,clyde river,70.47,-68.59,281.15,93,75,4.1,CA,1595361799
393,puerto palomas,31.77,-107.62,307.15,23,1,2.1,MX,1595361799
394,dingle,11.0,122.67,297.47,90,99,1.99,PH,1595361799
395,sao joao da barra,-21.64,-41.05,299.15,69,0,5.1,BR,1595361701
396,puquio,-14.7,-74.13,291.08,27,0,4.29,PE,1595361800
397,yadgir,16.77,77.13,300.54,75,100,1.78,IN,1595361708
398,kruisfontein,-34.0,24.73,289.7,33,0,4.19,ZA,1595361800
399,nichinan,31.6,131.37,298.71,83,90,4.92,JP,1595361801
400,saint-denis,48.92,2.33,296.48,31,0,3.6,FR,1595361801
401,panaba,21.28,-88.27,305.23,60,1,3.9,MX,1595361801
402,kieta,-6.22,155.63,298.39,79,8,2.0,PG,1595361801
403,wencheng,33.06,113.8,295.08,96,100,3.15,CN,1595361801
404,albenga,44.05,8.22,298.15,100,40,3.1,IT,1595361802
405,sidi ali,36.1,0.42,303.96,35,35,4.16,DZ,1595361802
406,henties bay,-22.12,14.28,292.59,48,0,0.45,NA,1595361802
407,georgiyevka,43.04,74.71,294.15,60,75,5.0,KZ,1595361802
408,chardara,41.25,67.97,299.3,29,0,1.63,KZ,1595361803
409,fare,-16.7,-151.02,298.4,80,13,11.35,PF,1595361803
410,mandan,46.83,-100.89,301.15,53,1,3.22,US,1595361803
411,high level,58.52,-117.14,294.15,73,75,2.1,CA,1595361803
412,purpe,64.48,76.69,279.82,88,0,5.94,RU,1595361804
413,coahuayana,18.73,-103.68,302.15,66,40,2.98,MX,1595361804
414,oranjestad,12.52,-70.03,305.15,66,40,9.8,AW,1595361537
415,touros,-5.2,-35.46,299.15,74,75,4.6,BR,1595361804
416,ferrol,43.48,-8.24,293.15,77,20,3.1,ES,1595361805
417,birin,26.89,88.07,290.08,100,83,0.75,NP,1595361805
418,arkhara,49.42,130.08,287.24,77,0,2.31,RU,1595361805
419,pontian kecil,1.48,103.39,298.15,94,20,2.33,MY,1595361805
420,albemarle,35.35,-80.2,308.15,63,75,3.6,US,1595361564
421,taltal,-25.4,-70.48,290.36,58,100,1.77,CL,1595361806
422,severnyy,50.68,36.55,294.15,64,77,4.0,RU,1595361806
423,bonthe,7.53,-12.51,298.16,88,100,4.28,SL,1595361807
424,llandrindod wells,52.24,-3.38,290.93,61,0,1.18,GB,1595361807
425,jiazi,22.88,116.07,300.32,84,0,1.73,CN,1595361807
426,kapiri mposhi,-13.97,28.68,285.04,81,0,3.26,ZM,1595361807
427,morondava,-20.28,44.28,293.81,75,0,5.76,MG,1595361807
428,dole,47.08,5.5,301.15,39,100,4.6,FR,1595361808
429,okhotsk,59.38,143.3,286.68,75,0,0.4,RU,1595361808
430,anju,39.62,125.66,292.77,85,89,0.85,KP,1595361808
431,awjilah,29.11,21.29,299.61,44,0,7.61,LY,1595361808
432,tommot,58.96,126.29,285.02,81,0,1.83,RU,1595361809
433,ulladulla,-35.35,150.47,280.93,75,0,4.1,AU,1595361581
434,aljezur,37.32,-8.8,297.04,80,0,3.33,PT,1595361809
435,shache,38.42,77.24,298.74,20,100,6.71,CN,1595361809
436,matagami,49.75,-77.63,296.15,40,20,3.01,CA,1595361809
437,aklavik,68.22,-135.01,280.15,93,90,1.0,CA,1595361809
438,itapaci,-14.95,-49.55,302.96,30,0,0.26,BR,1595361810
439,oussouye,12.48,-16.55,300.15,88,75,4.1,SN,1595361810
440,denison,33.76,-96.54,306.48,52,40,4.6,US,1595361810
441,chapais,49.78,-74.85,294.15,49,20,5.1,CA,1595361761
442,korem,12.51,39.52,286.81,87,100,3.21,ET,1595361609
443,havoysund,71.0,24.66,284.15,93,75,2.1,NO,1595361811
444,pingshan,22.99,114.71,298.8,86,0,1.23,CN,1595361811
445,prado,-17.34,-39.22,295.83,71,0,2.46,BR,1595361811
446,teluknaga,-6.1,106.64,299.82,88,20,2.6,ID,1595361812
447,batagay,67.63,134.63,295.16,53,70,2.18,RU,1595361812
448,condado,21.88,-79.84,299.15,94,100,1.5,CU,1595361812
449,igarka,67.47,86.58,282.53,86,36,6.5,RU,1595361812
450,verkhoturye,58.86,60.81,286.28,86,0,1.43,RU,1595361813
451,havre-saint-pierre,50.23,-63.6,293.15,60,1,11.8,CA,1595361813
452,davila,18.47,120.58,300.76,79,52,1.88,PH,1595361813
453,lovozero,68.0,35.01,289.13,69,100,1.88,RU,1595361813
454,vanimo,-2.67,141.3,298.62,86,50,2.35,PG,1595361814
455,namwala,-15.75,26.44,285.91,64,0,2.6,ZM,1595361814
456,samsun,41.25,36.33,296.15,69,75,4.1,TR,1595361814
457,de-kastri,51.47,140.78,287.93,95,100,2.75,RU,1595361814
458,kandrian,-6.22,149.55,298.12,88,54,4.59,PG,1595361815
459,komatipoort,-25.43,31.95,284.26,87,0,0.69,ZA,1595361815
460,port-gentil,-0.72,8.78,297.15,88,20,5.48,GA,1595361672
461,kinango,-4.14,39.32,294.59,85,78,3.92,KE,1595361815
462,jacareacanga,-6.22,-57.75,308.15,36,58,1.5,BR,1595361815
463,sabancuy,18.97,-91.18,304.92,56,68,4.05,MX,1595361815
464,agadez,19.75,10.25,304.72,17,0,1.25,NE,1595361816
465,viedma,-40.81,-63.0,282.04,89,100,2.24,AR,1595361816
466,sesheke,-17.48,24.3,289.15,38,0,2.1,ZM,1595361816
467,faya,18.39,42.45,294.15,88,93,2.1,SA,1595361817
468,chignahuapan,19.83,-98.03,293.92,62,100,4.45,MX,1595361817
469,vao,-22.67,167.48,293.72,77,100,8.58,NC,1595361817
470,esperance,-33.87,121.9,281.15,75,0,7.7,AU,1595361817
471,necochea,-38.55,-58.74,283.15,98,100,7.6,AR,1595361818
472,ippy,6.27,21.22,294.06,96,87,1.28,CF,1595361608
473,kigoma,-4.88,29.63,294.15,73,21,1.7,TZ,1595361818
474,baruun-urt,46.68,113.28,289.96,65,0,2.97,MN,1595361819
475,beisfjord,68.38,17.6,283.15,93,75,5.7,NO,1595361819
476,lhokseumawe,5.18,97.15,298.15,83,100,2.19,ID,1595361819
477,ripiceni,47.95,27.13,294.26,77,0,3.6,RO,1595361820
478,kapuskasing,49.42,-82.43,297.15,44,75,4.6,CA,1595361820
479,macia,-25.03,33.1,288.5,84,0,2.49,MZ,1595361820
480,haines junction,60.75,-137.51,284.28,81,100,1.29,CA,1595361821
481,the valley,18.22,-63.06,304.15,66,40,4.1,AI,1595361821
482,oschersleben,52.03,11.25,290.37,51,0,2.68,DE,1595361821
483,oktyabrskiy,54.48,53.47,289.26,85,0,0.93,RU,1595361821
484,raga,8.46,25.68,295.06,93,62,1.28,SS,1595361822
485,muros,42.78,-9.06,294.82,73,0,6.26,ES,1595361822
486,berlevag,70.86,29.09,287.15,100,40,2.6,NO,1595361823
487,anloga,5.79,0.9,298.15,88,20,3.1,GH,1595361823
488,namatanai,-3.67,152.43,299.09,85,61,2.77,PG,1595361823
489,atar,20.52,-13.05,311.14,22,64,3.55,MR,1595361824
490,rio grande,-32.03,-52.1,302.15,39,100,2.6,BR,1595361579
491,murshidabad,24.18,88.27,300.61,84,100,1.92,IN,1595361685
492,cotonou,6.37,2.42,298.15,94,20,4.6,BJ,1595361824
493,georgetown,5.41,100.34,299.15,100,40,2.1,MY,1595361824
494,hays,30.05,-98.03,307.59,46,90,3.57,US,1595361737
495,la mira,18.04,-102.33,303.85,68,84,3.71,MX,1595361825
496,berezniki,59.42,56.81,288.71,64,100,1.34,RU,1595361825
497,toyooka,35.53,134.83,295.08,91,89,0.98,JP,1595361655
498,mariental,-24.63,17.97,287.05,32,0,4.93,NA,1595361826
499,shitanjing,39.23,106.34,292.99,67,77,6.0,CN,1595361826
500,tongliao,43.61,122.27,294.35,81,97,3.99,CN,1595361826
501,lakhipur,26.03,90.3,298.4,92,100,1.04,IN,1595361826
502,maniwaki,46.38,-75.97,294.53,55,99,1.21,CA,1595361827
503,asau,46.43,26.4,289.26,96,0,1.33,RO,1595361827
504,chalchihuites,23.48,-103.88,294.53,57,44,3.58,MX,1595361827
505,jasper,37.2,-94.35,303.71,55,1,7.7,US,1595361827
506,puerto escondido,15.85,-97.07,303.15,66,90,3.6,MX,1595361659
507,padang,-0.95,100.35,298.67,78,99,2.03,ID,1595361828
508,kadyy,57.79,43.19,287.78,96,69,0.62,RU,1595361828
509,mbandaka,0.05,18.26,296.57,66,0,0.73,CD,1595361828
510,atbasar,51.8,68.33,288.76,71,100,4.67,KZ,1595361829
511,harnosand,62.63,17.94,288.15,54,31,4.6,SE,1595361829
512,inongo,-1.95,18.27,296.09,59,0,0.63,CD,1595361829
513,esfahan,32.66,51.68,300.15,13,0,3.1,IR,1595361570
514,tiksi,71.69,128.87,282.57,90,94,2.26,RU,1595361830
515,alvaraes,-3.22,-64.8,308.15,50,40,2.1,BR,1595361830
516,lebedinyy,58.52,125.52,283.31,86,9,3.8,RU,1595361830
517,zambezi,-13.54,23.1,288.26,44,0,2.24,ZM,1595361830
518,coari,-4.08,-63.14,306.02,43,64,0.94,BR,1595361630
519,alexandria,31.22,29.96,299.15,74,0,7.2,EG,1595361830
520,conceicao do araguaia,-8.26,-49.26,307.15,30,0,1.42,BR,1595361831
521,lamont,35.26,-118.91,307.04,27,1,2.11,US,1595361682
522,montes altos,-5.83,-47.07,308.15,34,20,3.6,BR,1595361831
523,denizli,37.84,29.07,299.15,34,0,4.6,TR,1595361832
524,saint-pierre,-21.34,55.48,291.15,82,75,2.1,RE,1595361832
525,lebanon,36.21,-86.29,308.15,47,40,2.6,US,1595361678
526,xochistlahuaca,16.78,-98.25,302.47,74,100,2.3,MX,1595361832
527,rundu,-17.93,19.77,290.15,29,0,1.5,NA,1595361589
528,pahrump,36.21,-115.98,314.26,12,9,3.13,US,1595361619
529,casteldaccia,38.05,13.53,299.82,74,0,1.31,IT,1595361833
530,edgewater,28.99,-80.9,305.15,59,40,7.7,US,1595361833
531,komsomolskiy,40.43,71.72,296.15,46,0,4.1,UZ,1595361833
532,smoky lake,54.12,-112.47,293.15,78,100,1.79,CA,1595361833
533,coihaique,-45.58,-72.07,276.15,69,75,6.7,CL,1595361801
534,ayagoz,47.97,80.44,291.7,75,29,2.08,KZ,1595361834
535,jiangyou,31.77,104.72,294.14,83,90,0.81,CN,1595361834
536,egvekinot,66.32,-179.17,281.92,63,89,1.19,RU,1595361834
537,mobaye,4.32,21.18,294.35,92,29,0.66,CF,1595361834
538,sao jose da coroa grande,-8.9,-35.15,297.75,73,0,4.92,BR,1595361835
539,mount pleasant,32.79,-79.86,308.15,66,20,4.1,US,1595361673
540,port moresby,-9.44,147.18,295.15,94,20,1.5,PG,1595361682
541,nador,35.17,-2.93,298.15,88,20,2.1,MA,1595361595
542,cap-aux-meules,47.38,-61.86,294.15,73,20,7.2,CA,1595361661
543,itapetinga,-15.25,-40.25,296.79,61,16,3.22,BR,1595361653
544,klyuchi,52.27,79.17,289.63,78,34,3.87,RU,1595361836
545,ulaangom,49.98,92.07,291.26,75,100,2.62,MN,1595361836
546,kiyasovo,56.35,53.12,289.26,91,30,0.45,RU,1595361836
547,abnub,27.27,31.15,303.15,33,0,5.1,EG,1595361837
548,nizhniy tsasuchey,50.52,115.13,289.92,62,63,2.47,RU,1595361837
549,sikasso,10.92,-7.0,298.5,79,3,1.27,ML,1595361837
550,rahimatpur,17.6,74.2,297.15,89,100,1.57,IN,1595361837
551,axim,4.87,-2.24,297.75,89,88,3.75,GH,1595361838
552,le port,-20.94,55.29,292.15,59,90,3.6,RE,1595361838
553,poum,-20.23,164.02,293.29,69,4,5.28,NC,1595361591
554,arlit,18.74,7.39,309.41,24,3,2.92,NE,1595361838
555,broken hill,-31.95,141.43,275.15,93,100,3.1,AU,1595361838
556,kirksville,40.19,-92.58,297.59,88,75,2.6,US,1595361665
557,curup,-3.47,102.53,293.37,93,75,1.23,ID,1595361839
558,puebla,18.83,-98.0,298.71,31,20,1.5,MX,1595361683
559,fortuna,40.6,-124.16,293.71,77,1,5.1,US,1595361840
560,rocha,-34.48,-54.33,291.71,91,100,2.71,UY,1595361840
561,paita,-5.09,-81.11,299.15,54,95,5.7,PE,1595361840
562,ravar,31.27,56.81,298.29,18,0,1.58,IR,1595361840
563,kurilsk,45.23,147.88,286.21,89,100,2.91,RU,1595361840
564,inuvik,68.35,-133.72,281.15,65,90,3.1,CA,1595361841
565,klaksvik,62.23,-6.59,284.15,81,0,4.6,FO,1595361764
566,burgos,42.34,-3.71,292.59,82,20,4.1,ES,1595361841
567,argentan,48.75,-0.02,290.15,63,0,3.6,FR,1595361842
568,dunmanway,51.72,-9.12,289.26,82,75,4.6,IE,1595361842
